[
  {
    "id": "049a599e-6d9f-4616-ac27-bd0e9c74aa03",
    "name": "J Earl Ham WWTP",
    "address": "610 Old Sylacauga Highway, Sylacauga, AL 35150",
    "city": "Sylacauga",
    "state": "AL",
    "zip": "35150",
    "lat": 33.1732,
    "lon": -86.2516,
    "permit": "AL0020001",
    "permit_status": "In Effect",
    "permit_type": "Publicly Owned Treatment Works (POTW)",
    "stage": "Not in Pipeline",
    "contact_name": "",
    "contact_email": "",
    "contact_phone": ""
  },
  {
    "id": "06cb8d11-9f37-45a2-a2d0-16b765cb99dd",
    "name": "Eastwood Mobile Home Village WWTP",
    "address": "1961 Alton Road, Irondale, AL 35210",
    "city": "Irondale",
    "state": "AL",
    "zip": "35210",
    "lat": 33.5382,
    "lon": -86.7072,
    "permit": "AL0056685",
    "permit_status": "In Effect",
    "permit_type": "Other Treatment Works Treating Domestic Sewage (TWTDS)",
    "stage": "Not in Pipeline",
    "contact_name": "",
    "contact_email": "",
    "contact_phone": ""
  },
  {
    "id": "085dfcea-f596-4d00-b3b1-f5afcc41964b",
    "name": "Opelika Westside WWTP",
    "address": "1017 Grand National Parkway, Opelika, AL 36803",
    "city": "Opelika",
    "state": "AL",
    "zip": "36803",
    "lat": 32.6454,
    "lon": -85.3783,
    "permit": "AL0050130",
    "permit_status": "In Effect",
    "permit_type": "Publicly Owned Treatment Works (POTW)",
    "stage": "Not in Pipeline",
    "contact_name": "",
    "contact_email": "",
    "contact_phone": ""
  },
  {
    "id": "08efca43-d1e1-4edb-90f8-e5bbc6f85e5c",
    "name": "Weatherly Utility Services - Site 2",
    "address": "Ballantrae Muir Drive, Pelham, AL 35124",
    "city": "Pelham",
    "state": "AL",
    "zip": "35124",
    "lat": 33.2857,
    "lon": -86.8094,
    "permit": "AL0076520",
    "permit_status": "In Effect",
    "permit_type": "Other Treatment Works Treating Domestic Sewage (TWTDS)",
    "stage": "Not in Pipeline",
    "contact_name": "",
    "contact_email": "",
    "contact_phone": ""
  },
  {
    "id": "09011583-b875-4d40-91ae-108712cb390e",
    "name": "Rolling Hills Wastewater Lagoon",
    "address": "1455 Mizell Road, Montgomery, AL 36116",
    "city": "Montgomery",
    "state": "AL",
    "zip": "36116",
    "lat": 32.3792,
    "lon": -86.3077,
    "permit": "AL0059315",
    "permit_status": "In Effect",
    "permit_type": "Publicly Owned Treatment Works (POTW)",
    "stage": "Not in Pipeline",
    "contact_name": "",
    "contact_email": "",
    "contact_phone": ""
  },
  {
    "id": "09515ffe-94b6-42ab-91a0-cb7b9456dbd4",
    "name": "Stoney Creek WWTP",
    "address": "1027 Indian Creek Road, Huntsville, AL 35806",
    "city": "Huntsville",
    "state": "AL",
    "zip": "35806",
    "lat": 34.7304,
    "lon": -86.5861,
    "permit": "AL0066796",
    "permit_status": "Extended",
    "permit_type": "Publicly Owned Treatment Works (POTW)",
    "stage": "Not in Pipeline",
    "contact_name": "",
    "contact_email": "",
    "contact_phone": ""
  },
  {
    "id": "0a2a5595-ac2f-474e-8e6b-2b53086af061",
    "name": "Hull Road Wetlands",
    "address": "1 Lower Hull Road, Tuscaloosa, AL 35403",
    "city": "Tuscaloosa",
    "state": "AL",
    "zip": "35403",
    "lat": 33.2098,
    "lon": -87.5692,
    "permit": "AL0074896",
    "permit_status": "In Effect",
    "permit_type": "Other Treatment Works Treating Domestic Sewage (TWTDS)",
    "stage": "Not in Pipeline",
    "contact_name": "",
    "contact_email": "",
    "contact_phone": ""
  },
  {
    "id": "0a57a5ca-29a7-46c8-8c4e-74b85f3cb5a4",
    "name": "Talladega Main WWTP",
    "address": "601 Alabama Highway 275, Talladega, AL 35160",
    "city": "Talladega",
    "state": "AL",
    "zip": "35160",
    "lat": 33.4359,
    "lon": -86.1058,
    "permit": "AL0022357",
    "permit_status": "In Effect",
    "permit_type": "Publicly Owned Treatment Works (POTW)",
    "stage": "Not in Pipeline",
    "contact_name": "",
    "contact_email": "",
    "contact_phone": ""
  },
  {
    "id": "0acc8ea3-f829-409b-b4f5-4da57e51706f",
    "name": "Sharon Heights Mobile Home Park",
    "address": "621 Bivens Brookside Road, Birmingham, AL 35214",
    "city": "Birmingham",
    "state": "AL",
    "zip": "35214",
    "lat": 33.5207,
    "lon": -86.8025,
    "permit": "AL0057827",
    "permit_status": "Extended",
    "permit_type": "Other Treatment Works Treating Domestic Sewage (TWTDS)",
    "stage": "To Contact Today",
    "contact_name": "",
    "contact_email": "",
    "contact_phone": ""
  },
  {
    "id": "0ecb9c96-17e9-4e22-9959-839122d0010b",
    "name": "Village at Cook Springs",
    "address": "415 Cook Springs Road, Pell City, AL 35125",
    "city": "Pell City",
    "state": "AL",
    "zip": "35125",
    "lat": 33.5862,
    "lon": -86.2861,
    "permit": "AL0049051",
    "permit_status": "Extended",
    "permit_type": "Other Treatment Works Treating Domestic Sewage (TWTDS)",
    "stage": "Not in Pipeline",
    "contact_name": "",
    "contact_email": "",
    "contact_phone": ""
  },
  {
    "id": "0faf9f7c-e63c-4412-9a2c-43a21c8bf749",
    "name": "El Reposo Nursing Facility Lagoon",
    "address": "County Road 8 And County Road 344, Florence, AL 35634",
    "city": "Florence",
    "state": "AL",
    "zip": "35634",
    "lat": 34.7998,
    "lon": -87.6772,
    "permit": "AL0056715",
    "permit_status": "In Effect",
    "permit_type": "Other Treatment Works Treating Domestic Sewage (TWTDS)",
    "stage": "Not in Pipeline",
    "contact_name": "",
    "contact_email": "",
    "contact_phone": ""
  },
  {
    "id": "113f90ae-1a8e-4af5-8443-7a314914ee1b",
    "name": "Dye Creek WWTP",
    "address": "1680 Golf Course Road, Pell City, AL 35128",
    "city": "Pell City",
    "state": "AL",
    "zip": "35128",
    "lat": 33.5862,
    "lon": -86.2861,
    "permit": "AL0045993",
    "permit_status": "In Effect",
    "permit_type": "Publicly Owned Treatment Works (POTW)",
    "stage": "To Contact Today",
    "contact_name": "",
    "contact_email": "",
    "contact_phone": ""
  },
  {
    "id": "116df4b1-554a-47a1-accf-c9917bf84bc2",
    "name": "Mountain View Hospital WWTP",
    "address": "3001 Scenic Highway, Gadsden, AL 35904",
    "city": "Gadsden",
    "state": "AL",
    "zip": "35904",
    "lat": 34.0143,
    "lon": -86.0066,
    "permit": "AL0059544",
    "permit_status": "In Effect",
    "permit_type": "Other Treatment Works Treating Domestic Sewage (TWTDS)",
    "stage": "Not in Pipeline",
    "contact_name": "",
    "contact_email": "",
    "contact_phone": ""
  },
  {
    "id": "118d1624-b8a9-4a4d-bedf-a449ce610b27",
    "name": "Saraland WWTP",
    "address": "104 Station Street, Saraland, AL 36571",
    "city": "Saraland",
    "state": "AL",
    "zip": "36571",
    "lat": 30.8207,
    "lon": -88.0706,
    "permit": "AL0055786",
    "permit_status": "Extended",
    "permit_type": "Publicly Owned Treatment Works (POTW)",
    "stage": "Not in Pipeline",
    "contact_name": "",
    "contact_email": "",
    "contact_phone": ""
  },
  {
    "id": "122c49cb-3988-4a06-918a-641bf48bcf28",
    "name": "Riverchase WWTP",
    "address": "2004 Parkway River Road, Hoover, AL 35244",
    "city": "Hoover",
    "state": "AL",
    "zip": "35244",
    "lat": 33.4054,
    "lon": -86.8114,
    "permit": "AL0041653",
    "permit_status": "In Effect",
    "permit_type": "Publicly Owned Treatment Works (POTW)",
    "stage": "To Contact Today",
    "contact_name": "",
    "contact_email": "",
    "contact_phone": ""
  },
  {
    "id": "14de68a2-d8d4-4626-91dd-6ba9d7c807e8",
    "name": "South Vinemont WWTF",
    "address": "36 Patton Drive, Cullman, AL 35179",
    "city": "Cullman",
    "state": "AL",
    "zip": "35179",
    "lat": 34.1748,
    "lon": -86.8436,
    "permit": "AL0075523",
    "permit_status": "In Effect",
    "permit_type": "Other Treatment Works Treating Domestic Sewage (TWTDS)",
    "stage": "Not in Pipeline",
    "contact_name": "",
    "contact_email": "",
    "contact_phone": ""
  },
  {
    "id": "197a3dd1-3ce4-4a01-9e07-ca3650b56fad",
    "name": "East Tuscaloosa-West Jefferson WWTP",
    "address": "12874 Woodland Park Circle, Mccalla, AL 35111",
    "city": "McCalla",
    "state": "AL",
    "zip": "35111",
    "lat": 33.2612,
    "lon": -87.0286,
    "permit": "AL0068420",
    "permit_status": "In Effect",
    "permit_type": "Other Treatment Works Treating Domestic Sewage (TWTDS)",
    "stage": "Not in Pipeline",
    "contact_name": "",
    "contact_email": "",
    "contact_phone": ""
  },
  {
    "id": "1a5fe714-fd0f-4de4-bb84-69cd7167cd8f",
    "name": "Albertville Water Treatment Plant",
    "address": "600 Water Plant Road, Albertville, AL 35951",
    "city": "Albertville",
    "state": "AL",
    "zip": "35951",
    "lat": 34.2673,
    "lon": -86.2089,
    "permit": "AL0075035",
    "permit_status": "In Effect",
    "permit_type": "Municipal Water Treatment Plant",
    "stage": "Not in Pipeline",
    "contact_name": "",
    "contact_email": "",
    "contact_phone": ""
  },
  {
    "id": "1b6c03fa-6de5-4929-b3b8-db82aee6d865",
    "name": "Five Mile Creek WRF",
    "address": "3410 Happy Hollow Rd, Fultondale, AL 350682019",
    "city": "Fultondale",
    "state": "AL",
    "zip": "35068",
    "lat": 33.6048,
    "lon": -86.7939,
    "permit": "AL0026913",
    "permit_status": "In Effect",
    "permit_type": "Publicly Owned Treatment Works (POTW)",
    "stage": "Not in Pipeline",
    "contact_name": "",
    "contact_email": "",
    "contact_phone": ""
  },
  {
    "id": "1f9217f3-591e-4b7c-9e5b-fe27445e5d76",
    "name": "Econchate WWTP",
    "address": "2501 Jackson Ferry Road, Montgomery, AL 36104",
    "city": "Montgomery",
    "state": "AL",
    "zip": "36104",
    "lat": 32.3792,
    "lon": -86.3077,
    "permit": "AL0022225",
    "permit_status": "Extended",
    "permit_type": "Publicly Owned Treatment Works (POTW)",
    "stage": "Not in Pipeline",
    "contact_name": "",
    "contact_email": "",
    "contact_phone": ""
  },
  {
    "id": "1fbc1dd0-b6ca-4d1e-ba9c-28a988fe73ea",
    "name": "Calera Pollution Control Plant",
    "address": "2273 9Th Street, Calera, AL 35040",
    "city": "Calera",
    "state": "AL",
    "zip": "35040",
    "lat": 33.1029,
    "lon": -86.7536,
    "permit": "AL0050938",
    "permit_status": "In Effect",
    "permit_type": "Publicly Owned Treatment Works (POTW)",
    "stage": "Not in Pipeline",
    "contact_name": "",
    "contact_email": "",
    "contact_phone": ""
  },
  {
    "id": "2059820c-d4c1-43d3-86f2-cc37bb782b6a",
    "name": "H.C. Morgan WPCF",
    "address": "616 Sandhill Road, Auburn, AL 36830",
    "city": "Auburn",
    "state": "AL",
    "zip": "36830",
    "lat": 32.6099,
    "lon": -85.4808,
    "permit": "AL0050237",
    "permit_status": "In Effect",
    "permit_type": "Publicly Owned Treatment Works (POTW)",
    "stage": "Not in Pipeline",
    "contact_name": "",
    "contact_email": "",
    "contact_phone": ""
  },
  {
    "id": "21e66dba-701a-4803-9677-32abb5ffcb3d",
    "name": "Gadsden Water Filtration Plant",
    "address": "625 Albert Rains Boulevard, Gadsden, AL 35901",
    "city": "Gadsden",
    "state": "AL",
    "zip": "35901",
    "lat": 34.0143,
    "lon": -86.0066,
    "permit": "AL0083844",
    "permit_status": "In Effect",
    "permit_type": "Municipal Water Treatment Plant",
    "stage": "Not in Pipeline",
    "contact_name": "",
    "contact_email": "",
    "contact_phone": ""
  },
  {
    "id": "235331b7-325c-44ce-8a99-ce0fa7e30cf4",
    "name": "Valley Jr High School WWTP",
    "address": "155 Valley School Rd, Jasper, AL 35504",
    "city": "Jasper",
    "state": "AL",
    "zip": "35504",
    "lat": 33.8312,
    "lon": -87.2775,
    "permit": "AL0045551",
    "permit_status": "In Effect",
    "permit_type": "Other Treatment Works Treating Domestic Sewage (TWTDS)",
    "stage": "Not in Pipeline",
    "contact_name": "",
    "contact_email": "",
    "contact_phone": ""
  },
  {
    "id": "23614aae-1c1f-4820-998e-217f766a6d06",
    "name": "Good Hope WWTP",
    "address": "301 Day Gap Road, Cullman, AL 35057",
    "city": "Cullman",
    "state": "AL",
    "zip": "35057",
    "lat": 34.1748,
    "lon": -86.8436,
    "permit": "AL0058343",
    "permit_status": "In Effect",
    "permit_type": "Other Treatment Works Treating Domestic Sewage (TWTDS)",
    "stage": "Not in Pipeline",
    "contact_name": "",
    "contact_email": "",
    "contact_phone": ""
  },
  {
    "id": "239fe7c7-f33c-40b6-b922-c797723357a5",
    "name": "McClellan WWTP",
    "address": "6112 Mcclellan Boulevard, Anniston, AL 36206",
    "city": "Anniston",
    "state": "AL",
    "zip": "36206",
    "lat": 33.6598,
    "lon": -85.8316,
    "permit": "AL0024520",
    "permit_status": "In Effect",
    "permit_type": "Publicly Owned Treatment Works (POTW)",
    "stage": "Not in Pipeline",
    "contact_name": "",
    "contact_email": "",
    "contact_phone": ""
  },
  {
    "id": "25651aa6-faef-4f04-b5fe-166b72fa4534",
    "name": "Lehigh WWTP",
    "address": "",
    "city": "Lehigh",
    "state": "PA",
    "zip": "",
    "lat": 40.5834,
    "lon": -75.571,
    "permit": "",
    "permit_status": "",
    "permit_type": "",
    "stage": "Paid",
    "contact_name": "",
    "contact_email": "",
    "contact_phone": ""
  },
  {
    "id": "270d28f2-cb6e-42f1-854d-f9fd0dd59b83",
    "name": "Miller Creek WWTP",
    "address": "Johnson Rd., Mobile, AL 36695",
    "city": "Mobile",
    "state": "AL",
    "zip": "36695",
    "lat": 30.6954,
    "lon": -88.0399,
    "permit": "AL0081299",
    "permit_status": "In Effect",
    "permit_type": "Publicly Owned Treatment Works (POTW)",
    "stage": "Not in Pipeline",
    "contact_name": "",
    "contact_email": "",
    "contact_phone": ""
  },
  {
    "id": "274451ea-afba-4261-98ae-bcf377c3e6fb",
    "name": "Gulf Shores Water Reclamation Facility",
    "address": "2500 East 10Th Street, Gulf Shores, AL 36542",
    "city": "Gulf Shores",
    "state": "AL",
    "zip": "36542",
    "lat": 30.246,
    "lon": -87.7008,
    "permit": "AL0055841",
    "permit_status": "In Effect",
    "permit_type": "Publicly Owned Treatment Works (POTW)",
    "stage": "Not in Pipeline",
    "contact_name": "",
    "contact_email": "",
    "contact_phone": ""
  },
  {
    "id": "28975b0e-e056-4fe1-bfda-08763904f958",
    "name": "City of Pelham WWTP",
    "address": "800 Thames Court, Pelham, AL 35124",
    "city": "Pelham",
    "state": "AL",
    "zip": "35124",
    "lat": 33.2857,
    "lon": -86.8094,
    "permit": "AL0054666",
    "permit_status": "In Effect",
    "permit_type": "Publicly Owned Treatment Works (POTW)",
    "stage": "To Contact Today",
    "contact_name": "",
    "contact_email": "",
    "contact_phone": ""
  },
  {
    "id": "28a93797-2536-4e28-b6ca-fe87edb1da69",
    "name": "Aldridge Creek WWTP",
    "address": "13331 Memorial Parkway S.E., Huntsville, AL 35803",
    "city": "Huntsville",
    "state": "AL",
    "zip": "35803",
    "lat": 34.7304,
    "lon": -86.5861,
    "permit": "AL0056855",
    "permit_status": "In Effect",
    "permit_type": "Publicly Owned Treatment Works (POTW)",
    "stage": "Not in Pipeline",
    "contact_name": "",
    "contact_email": "",
    "contact_phone": ""
  },
  {
    "id": "2d138b7c-7e4f-456a-bff3-8855e19e2d2a",
    "name": "Gadsden East River WWTP",
    "address": "601 Paden Rd, Gadsden, AL 35903",
    "city": "Gadsden",
    "state": "AL",
    "zip": "35903",
    "lat": 34.0143,
    "lon": -86.0066,
    "permit": "AL0022659",
    "permit_status": "In Effect",
    "permit_type": "Publicly Owned Treatment Works (POTW)",
    "stage": "Not in Pipeline",
    "contact_name": "",
    "contact_email": "",
    "contact_phone": ""
  },
  {
    "id": "2d612646-37e5-48fd-b184-d31cb0880bc8",
    "name": "Jeff Road WWTP",
    "address": "970 Jeff Road, Huntsville, AL 35806",
    "city": "Huntsville",
    "state": "AL",
    "zip": "35806",
    "lat": 34.7304,
    "lon": -86.5861,
    "permit": "AL0068608",
    "permit_status": "Extended",
    "permit_type": "Publicly Owned Treatment Works (POTW)",
    "stage": "Not in Pipeline",
    "contact_name": "",
    "contact_email": "",
    "contact_phone": ""
  },
  {
    "id": "2fe26aee-9a9f-48b4-afe6-f0fbf3c6fd33",
    "name": "Kings Acres Sanitary Lagoon",
    "address": "Intersection Of Martin Luther King Jr. Blvd. And 6, Tuscaloosa, AL 35401",
    "city": "Tuscaloosa",
    "state": "AL",
    "zip": "35401",
    "lat": 33.2098,
    "lon": -87.5692,
    "permit": "AL0081396",
    "permit_status": "In Effect",
    "permit_type": "Other Treatment Works Treating Domestic Sewage (TWTDS)",
    "stage": "Not in Pipeline",
    "contact_name": "",
    "contact_email": "",
    "contact_phone": ""
  },
  {
    "id": "30055fb3-f793-4c03-b91c-37c67a93b66b",
    "name": "Hilliard N. Fletcher WRRF",
    "address": "4010 Reese Phifer Avenue, Tuscaloosa, AL 35401",
    "city": "Tuscaloosa",
    "state": "AL",
    "zip": "35401",
    "lat": 33.2098,
    "lon": -87.5692,
    "permit": "AL0022713",
    "permit_status": "In Effect",
    "permit_type": "Publicly Owned Treatment Works (POTW)",
    "stage": "Interest Expressed",
    "contact_name": "",
    "contact_email": "",
    "contact_phone": ""
  },
  {
    "id": "30395083-6e5c-40e9-9e1a-fa62aae1e7fa",
    "name": "Athens WWTP",
    "address": "942 East Sanderfer Road, Athens, AL 35611",
    "city": "Athens",
    "state": "AL",
    "zip": "35611",
    "lat": 34.8025,
    "lon": -86.9717,
    "permit": "AL0020206",
    "permit_status": "In Effect",
    "permit_type": "Publicly Owned Treatment Works (POTW)",
    "stage": "Not in Pipeline",
    "contact_name": "",
    "contact_email": "",
    "contact_phone": ""
  },
  {
    "id": "3047ae1d-f278-4e57-a798-4e1160d0895c",
    "name": "Valley Grande Elementary WWTP",
    "address": "2765 Dallas County Road 81, Selma, AL 36703",
    "city": "Selma",
    "state": "AL",
    "zip": "36703",
    "lat": 32.4074,
    "lon": -87.0211,
    "permit": "AL0044296",
    "permit_status": "In Effect",
    "permit_type": "Other Treatment Works Treating Domestic Sewage (TWTDS)",
    "stage": "Not in Pipeline",
    "contact_name": "",
    "contact_email": "",
    "contact_phone": ""
  },
  {
    "id": "326db8ce-2cdd-412a-86c0-68e8dd6af0b4",
    "name": "Millbrook WWTP",
    "address": "627 Thornfield Drive, Millbrook, AL 36054",
    "city": "Millbrook",
    "state": "AL",
    "zip": "36054",
    "lat": 32.4799,
    "lon": -86.3619,
    "permit": "AL0049921",
    "permit_status": "In Effect",
    "permit_type": "Publicly Owned Treatment Works (POTW)",
    "stage": "Not in Pipeline",
    "contact_name": "",
    "contact_email": "",
    "contact_phone": ""
  },
  {
    "id": "333ebf91-98fa-4b97-9f1d-e2e918f2dbbc",
    "name": "Irondale WWTF",
    "address": "1696 Floyd Bradford Road, Irondale, AL 35210",
    "city": "Irondale",
    "state": "AL",
    "zip": "35210",
    "lat": 33.5382,
    "lon": -86.7072,
    "permit": "AL0078395",
    "permit_status": "In Effect",
    "permit_type": "Other Treatment Works Treating Domestic Sewage (TWTDS)",
    "stage": "To Contact Today",
    "contact_name": "",
    "contact_email": "",
    "contact_phone": ""
  },
  {
    "id": "36fb3ad9-e616-47f4-8c01-dec6b22f1994",
    "name": "Scottsboro Southside WWTP",
    "address": "318 Camille Street, Scottsboro, AL 35769",
    "city": "Scottsboro",
    "state": "AL",
    "zip": "35769",
    "lat": 34.6723,
    "lon": -86.0341,
    "permit": "AL0031372",
    "permit_status": "In Effect",
    "permit_type": "Publicly Owned Treatment Works (POTW)",
    "stage": "Not in Pipeline",
    "contact_name": "",
    "contact_email": "",
    "contact_phone": ""
  },
  {
    "id": "3ad184d5-1934-406e-9ae7-246bbb8e0d5c",
    "name": "Decatur Utilities WTP",
    "address": "1900 Market Street Ne, Decatur, AL 35601",
    "city": "Decatur",
    "state": "AL",
    "zip": "35601",
    "lat": 34.6059,
    "lon": -86.9833,
    "permit": "AL0052221",
    "permit_status": "In Effect",
    "permit_type": "Municipal Water Treatment Plant",
    "stage": "Not in Pipeline",
    "contact_name": "",
    "contact_email": "",
    "contact_phone": ""
  },
  {
    "id": "3adf0636-b834-4a61-82b8-85446adf5a88",
    "name": "Enterprise Northeast WWTP",
    "address": "Porter Lunsford Road, Enterprise, AL 36331",
    "city": "Enterprise",
    "state": "AL",
    "zip": "36331",
    "lat": 31.3152,
    "lon": -85.8552,
    "permit": "AL0020061",
    "permit_status": "In Effect",
    "permit_type": "Publicly Owned Treatment Works (POTW)",
    "stage": "Not in Pipeline",
    "contact_name": "",
    "contact_email": "",
    "contact_phone": ""
  },
  {
    "id": "3c413211-1773-457a-90c2-a54107376c24",
    "name": "Integra Water North Limestone WRF",
    "address": "22230 Mooresville Rd, Athens, AL 35613",
    "city": "Athens",
    "state": "AL",
    "zip": "35613",
    "lat": 34.8025,
    "lon": -86.9717,
    "permit": "AL0084446",
    "permit_status": "In Effect",
    "permit_type": "Other Treatment Works Treating Domestic Sewage (TWTDS)",
    "stage": "Not in Pipeline",
    "contact_name": "",
    "contact_email": "",
    "contact_phone": ""
  },
  {
    "id": "3e68834c-31f2-42cc-9bcd-429fdd52b39d",
    "name": "Walnut Creek WWTP",
    "address": "1574 Chilton County Road 51, Clanton, AL 35046",
    "city": "Clanton",
    "state": "AL",
    "zip": "35046",
    "lat": 32.8388,
    "lon": -86.6294,
    "permit": "AL0054631",
    "permit_status": "In Effect",
    "permit_type": "Publicly Owned Treatment Works (POTW)",
    "stage": "Not in Pipeline",
    "contact_name": "",
    "contact_email": "",
    "contact_phone": ""
  },
  {
    "id": "3ee3e8ba-bec6-4b1f-a4aa-3da157741f44",
    "name": "Sugar Creek Advanced WWTP",
    "address": "2515 Sugar Creek Road, Alexander City, AL 35010",
    "city": "Alexander City",
    "state": "AL",
    "zip": "35010",
    "lat": 32.944,
    "lon": -85.9539,
    "permit": "AL0048861",
    "permit_status": "In Effect",
    "permit_type": "Publicly Owned Treatment Works (POTW)",
    "stage": "Interest Expressed",
    "contact_name": "",
    "contact_email": "",
    "contact_phone": ""
  },
  {
    "id": "3fc7b4f5-3ea5-4ddc-a452-5c12098e15d0",
    "name": "Chase Area WWTP",
    "address": "907 Wess Taylor Road, Huntsville, AL 35811",
    "city": "Huntsville",
    "state": "AL",
    "zip": "35811",
    "lat": 34.7304,
    "lon": -86.5861,
    "permit": "AL0057428",
    "permit_status": "In Effect",
    "permit_type": "Publicly Owned Treatment Works (POTW)",
    "stage": "Not in Pipeline",
    "contact_name": "",
    "contact_email": "",
    "contact_phone": ""
  },
  {
    "id": "440af4c0-d5df-4cc0-b22e-df05b5901da9",
    "name": "Valley Creek WWTP",
    "address": "1 Marina Drive, Selma, AL 36701",
    "city": "Selma",
    "state": "AL",
    "zip": "36701",
    "lat": 32.4074,
    "lon": -87.0211,
    "permit": "AL0022578",
    "permit_status": "In Effect",
    "permit_type": "Publicly Owned Treatment Works (POTW)",
    "stage": "Not in Pipeline",
    "contact_name": "",
    "contact_email": "",
    "contact_phone": ""
  },
  {
    "id": "46420f0e-5213-4e40-abff-d4d854633f62",
    "name": "Hartselle Utilities WWTP",
    "address": "3392 Blue Ridge Road, Hartselle, AL 35640",
    "city": "Hartselle",
    "state": "AL",
    "zip": "35640",
    "lat": 34.4434,
    "lon": -86.9353,
    "permit": "AL0054674",
    "permit_status": "Extended",
    "permit_type": "Publicly Owned Treatment Works (POTW)",
    "stage": "Not in Pipeline",
    "contact_name": "",
    "contact_email": "",
    "contact_phone": ""
  },
  {
    "id": "467082a2-21c1-47c2-a977-60f26f2475e8",
    "name": "West Point WWTP",
    "address": "4314 County Road 1141, Cullman, AL 35057",
    "city": "Cullman",
    "state": "AL",
    "zip": "35057",
    "lat": 34.1748,
    "lon": -86.8436,
    "permit": "AL0051136",
    "permit_status": "In Effect",
    "permit_type": "Publicly Owned Treatment Works (POTW)",
    "stage": "Not in Pipeline",
    "contact_name": "",
    "contact_email": "",
    "contact_phone": ""
  },
  {
    "id": "4a98a2c8-d254-488b-8cbd-f2562b85442e",
    "name": "MUB Wastewater Treatment Plant",
    "address": "901 East Mckinney Avenue, Albertville, AL 35951",
    "city": "Albertville",
    "state": "AL",
    "zip": "35951",
    "lat": 34.2673,
    "lon": -86.2089,
    "permit": "AL0020192",
    "permit_status": "In Effect",
    "permit_type": "Publicly Owned Treatment Works (POTW)",
    "stage": "Not in Pipeline",
    "contact_name": "",
    "contact_email": "",
    "contact_phone": ""
  },
  {
    "id": "4ff54587-1f10-4885-9b9f-f06181375e54",
    "name": "Red Eagle Honor Farm",
    "address": "1290 Red Eagle Road, Montgomery, AL 36110",
    "city": "Montgomery",
    "state": "AL",
    "zip": "36110",
    "lat": 32.3792,
    "lon": -86.3077,
    "permit": "AL0051403",
    "permit_status": "In Effect",
    "permit_type": "Other Treatment Works Treating Domestic Sewage (TWTDS)",
    "stage": "Not in Pipeline",
    "contact_name": "",
    "contact_email": "",
    "contact_phone": ""
  },
  {
    "id": "515fb8dc-4f92-4a34-9848-b8b4200ad295",
    "name": "Oxford Tull C. Allen WWTP",
    "address": "2975 Silver Run Road, Oxford, AL 36203",
    "city": "Oxford",
    "state": "AL",
    "zip": "36203",
    "lat": 33.614,
    "lon": -85.8347,
    "permit": "AL0058408",
    "permit_status": "Extended",
    "permit_type": "Publicly Owned Treatment Works (POTW)",
    "stage": "Not in Pipeline",
    "contact_name": "",
    "contact_email": "",
    "contact_phone": ""
  },
  {
    "id": "52e87f93-52b2-4aac-a796-516cca44c7d0",
    "name": "Foley WWTP",
    "address": "1000 Greentree Lane, Foley, AL 36535",
    "city": "Foley",
    "state": "AL",
    "zip": "36535",
    "lat": 30.4066,
    "lon": -87.6836,
    "permit": "AL0049042",
    "permit_status": "In Effect",
    "permit_type": "Publicly Owned Treatment Works (POTW)",
    "stage": "Not in Pipeline",
    "contact_name": "",
    "contact_email": "",
    "contact_phone": ""
  },
  {
    "id": "543fdc06-0766-4973-9350-672880a49714",
    "name": "Auburn Northside WPCF",
    "address": "3121 Richland Road, Auburn, AL 36830",
    "city": "Auburn",
    "state": "AL",
    "zip": "36830",
    "lat": 32.6099,
    "lon": -85.4808,
    "permit": "AL0050245",
    "permit_status": "In Effect",
    "permit_type": "Publicly Owned Treatment Works (POTW)",
    "stage": "Not in Pipeline",
    "contact_name": "",
    "contact_email": "",
    "contact_phone": ""
  },
  {
    "id": "54ce2cc1-2707-4b2b-a57e-ff50c7734f81",
    "name": "Donaldson Correctional Facility WWTP",
    "address": "100 Warrior Lane, Bessemer, AL 35023",
    "city": "Bessemer",
    "state": "AL",
    "zip": "35023",
    "lat": 33.4018,
    "lon": -86.9544,
    "permit": "AL0045560",
    "permit_status": "In Effect",
    "permit_type": "Other Treatment Works Treating Domestic Sewage (TWTDS)",
    "stage": "Not in Pipeline",
    "contact_name": "",
    "contact_email": "",
    "contact_phone": ""
  },
  {
    "id": "5528ddc6-f6e2-49af-889e-7005d9322351",
    "name": "Ozark Southside WWTF",
    "address": "Alabama Highway 123, Ozark, AL 36361",
    "city": "Ozark",
    "state": "AL",
    "zip": "36361",
    "lat": 31.459,
    "lon": -85.6405,
    "permit": "AL0056324",
    "permit_status": "In Effect",
    "permit_type": "Publicly Owned Treatment Works (POTW)",
    "stage": "Not in Pipeline",
    "contact_name": "",
    "contact_email": "",
    "contact_phone": ""
  },
  {
    "id": "58191b9e-596a-4821-b839-09e46c017a3c",
    "name": "Autauga County WWTP",
    "address": "Industrial Business Park, 1810 U. S. Highway 31, N, Prattville, AL 36067",
    "city": "Prattville",
    "state": "AL",
    "zip": "36067",
    "lat": 32.464,
    "lon": -86.4597,
    "permit": "AL0084166",
    "permit_status": "In Effect",
    "permit_type": "Other Treatment Works Treating Domestic Sewage (TWTDS)",
    "stage": "Not in Pipeline",
    "contact_name": "",
    "contact_email": "",
    "contact_phone": ""
  },
  {
    "id": "587e581f-fff0-4442-89aa-4b6f494ca1d3",
    "name": "Dothan New Cypress Creek WWTP",
    "address": "2431 Helms Road, Dothan, AL 36301",
    "city": "Dothan",
    "state": "AL",
    "zip": "36301",
    "lat": 31.2232,
    "lon": -85.3905,
    "permit": "AL0072737",
    "permit_status": "In Effect",
    "permit_type": "Publicly Owned Treatment Works (POTW)",
    "stage": "Not in Pipeline",
    "contact_name": "",
    "contact_email": "",
    "contact_phone": ""
  },
  {
    "id": "592d52cb-40f6-4d44-a596-1742df93fea8",
    "name": "Stewartville Well #1 RO WTP",
    "address": "870 Sorrell Road, Sylacauga, AL 35151",
    "city": "Sylacauga",
    "state": "AL",
    "zip": "35151",
    "lat": 33.1732,
    "lon": -86.2516,
    "permit": "AL0081621",
    "permit_status": "In Effect",
    "permit_type": "Municipal Water Treatment Plant",
    "stage": "Not in Pipeline",
    "contact_name": "",
    "contact_email": "",
    "contact_phone": ""
  },
  {
    "id": "5b8a16f7-8d93-4f35-8fcc-cfe2e0f9186e",
    "name": "North Shelby Water Resource Recovery Facility",
    "address": "161 Village Street, Birmingham, AL 35242",
    "city": "Birmingham",
    "state": "AL",
    "zip": "35242",
    "lat": 33.5207,
    "lon": -86.8025,
    "permit": "AL0056251",
    "permit_status": "In Effect",
    "permit_type": "Other Treatment Works Treating Domestic Sewage (TWTDS)",
    "stage": "To Contact Today",
    "contact_name": "",
    "contact_email": "",
    "contact_phone": ""
  },
  {
    "id": "5c76c086-b7b8-4191-90fb-4701a0002d0e",
    "name": "Inverness WWTP",
    "address": "3308 Afton Circle, Hoover, AL 35242",
    "city": "Hoover",
    "state": "AL",
    "zip": "35242",
    "lat": 33.4054,
    "lon": -86.8114,
    "permit": "AL0025852",
    "permit_status": "In Effect",
    "permit_type": "Publicly Owned Treatment Works (POTW)",
    "stage": "To Contact Today",
    "contact_name": "",
    "contact_email": "",
    "contact_phone": ""
  },
  {
    "id": "5f060390-6e17-4b55-a46d-ea23655b6795",
    "name": "Northport WWTP",
    "address": "3950 3Rd Street South, Northport, AL 35476",
    "city": "Northport",
    "state": "AL",
    "zip": "35476",
    "lat": 33.229,
    "lon": -87.5772,
    "permit": "AL0064394",
    "permit_status": "In Effect",
    "permit_type": "Publicly Owned Treatment Works (POTW)",
    "stage": "Interest Expressed",
    "contact_name": "",
    "contact_email": "",
    "contact_phone": ""
  },
  {
    "id": "5f31e906-9d0c-46db-ab91-370b06140925",
    "name": "Spring Branch WWTP",
    "address": "1802 Vermont Road, Huntsville, AL 35802",
    "city": "Huntsville",
    "state": "AL",
    "zip": "35802",
    "lat": 34.7304,
    "lon": -86.5861,
    "permit": "AL0058394",
    "permit_status": "In Effect",
    "permit_type": "Publicly Owned Treatment Works (POTW)",
    "stage": "Not in Pipeline",
    "contact_name": "",
    "contact_email": "",
    "contact_phone": ""
  },
  {
    "id": "6036782b-e6f8-4a13-badb-5f799d3ba30e",
    "name": "Village Creek WRF",
    "address": "1440 Pleasant Hill Road, Birmingham, AL 35224",
    "city": "Birmingham",
    "state": "AL",
    "zip": "35224",
    "lat": 33.5207,
    "lon": -86.8025,
    "permit": "AL0023647",
    "permit_status": "In Effect",
    "permit_type": "Publicly Owned Treatment Works (POTW)",
    "stage": "Not in Pipeline",
    "contact_name": "",
    "contact_email": "",
    "contact_phone": ""
  },
  {
    "id": "6292edd4-dde9-4912-af97-d8f8a5a50375",
    "name": "Wind Creek State Park Lagoon",
    "address": "4325 Alabama Highway 128, Alexander City, AL 35010",
    "city": "Alexander City",
    "state": "AL",
    "zip": "35010",
    "lat": 32.944,
    "lon": -85.9539,
    "permit": "AL0029424",
    "permit_status": "In Effect",
    "permit_type": "Publicly Owned Treatment Works (POTW)",
    "stage": "Not in Pipeline",
    "contact_name": "",
    "contact_email": "",
    "contact_phone": ""
  },
  {
    "id": "644d5a96-fefa-4298-864b-33d68dd8a6e0",
    "name": "Cullman Filter Plant",
    "address": "1740 3Rd Street S.E., Cullman, AL 35055",
    "city": "Cullman",
    "state": "AL",
    "zip": "35055",
    "lat": 34.1748,
    "lon": -86.8436,
    "permit": "AL0082091",
    "permit_status": "In Effect",
    "permit_type": "Municipal Water Treatment Plant",
    "stage": "Not in Pipeline",
    "contact_name": "",
    "contact_email": "",
    "contact_phone": ""
  },
  {
    "id": "64c24835-9ba6-4b0f-ba68-b52dd69717ff",
    "name": "Priceville Lagoon",
    "address": "256 Old Branch Road, Decatur, AL 35603",
    "city": "Decatur",
    "state": "AL",
    "zip": "35603",
    "lat": 34.6059,
    "lon": -86.9833,
    "permit": "AL0060577",
    "permit_status": "In Effect",
    "permit_type": "Publicly Owned Treatment Works (POTW)",
    "stage": "Not in Pipeline",
    "contact_name": "",
    "contact_email": "",
    "contact_phone": ""
  },
  {
    "id": "681f73ed-4f47-4dcc-81b4-877f7466968e",
    "name": "EWTN WWTP",
    "address": "5817 Old Leeds Road, Irondale, AL 35210",
    "city": "Irondale",
    "state": "AL",
    "zip": "35210",
    "lat": 33.5382,
    "lon": -86.7072,
    "permit": "AL0057681",
    "permit_status": "In Effect",
    "permit_type": "Other Treatment Works Treating Domestic Sewage (TWTDS)",
    "stage": "Not in Pipeline",
    "contact_name": "",
    "contact_email": "",
    "contact_phone": ""
  },
  {
    "id": "69d2f9d0-f1b6-49eb-b4c9-b0c002dcb502",
    "name": "Laye Williams Water Treatment Plant",
    "address": "195 Jasper Road, Jasper, AL 35502",
    "city": "Jasper",
    "state": "AL",
    "zip": "35502",
    "lat": 33.8312,
    "lon": -87.2775,
    "permit": "AL0052906",
    "permit_status": "In Effect",
    "permit_type": "Municipal Water Treatment Plant",
    "stage": "Not in Pipeline",
    "contact_name": "",
    "contact_email": "",
    "contact_phone": ""
  },
  {
    "id": "6aa3eb78-bdbd-4b3f-84af-8dbcfdd37a8b",
    "name": "Phenix City WWTP",
    "address": "1600 E. State Docks Road, Phenix City, AL 36869",
    "city": "Phenix City",
    "state": "AL",
    "zip": "36869",
    "lat": 32.4709,
    "lon": -85.0008,
    "permit": "AL0022209",
    "permit_status": "In Effect",
    "permit_type": "Publicly Owned Treatment Works (POTW)",
    "stage": "Not in Pipeline",
    "contact_name": "",
    "contact_email": "",
    "contact_phone": ""
  },
  {
    "id": "6b3cbfd6-ca0e-424e-ac15-e0e9d527518f",
    "name": "Weatherly Water Reclamation Center",
    "address": "Weatherly Club Drive, Pelham, AL 35124",
    "city": "Pelham",
    "state": "AL",
    "zip": "35124",
    "lat": 33.2857,
    "lon": -86.8094,
    "permit": "AL0073539",
    "permit_status": "In Effect",
    "permit_type": "Other Treatment Works Treating Domestic Sewage (TWTDS)",
    "stage": "Not in Pipeline",
    "contact_name": "",
    "contact_email": "",
    "contact_phone": ""
  },
  {
    "id": "6c6514a3-5e01-4916-87de-b022415611c8",
    "name": "Rogers High School Lagoon",
    "address": "700 County Road 38, Florence, AL 35634",
    "city": "Florence",
    "state": "AL",
    "zip": "35634",
    "lat": 34.7998,
    "lon": -87.6772,
    "permit": "AL0057134",
    "permit_status": "In Effect",
    "permit_type": "Other Treatment Works Treating Domestic Sewage (TWTDS)",
    "stage": "Not in Pipeline",
    "contact_name": "",
    "contact_email": "",
    "contact_phone": ""
  },
  {
    "id": "6d9ee092-9b9e-4ac6-bd52-312536fc0a96",
    "name": "Riverview WRRF",
    "address": "2926 Riverview Road, Birmingham, AL 35243",
    "city": "Birmingham",
    "state": "AL",
    "zip": "35243",
    "lat": 33.5207,
    "lon": -86.8025,
    "permit": "AL0045969",
    "permit_status": "In Effect",
    "permit_type": "Other Treatment Works Treating Domestic Sewage (TWTDS)",
    "stage": "Not in Pipeline",
    "contact_name": "",
    "contact_email": "",
    "contact_phone": ""
  },
  {
    "id": "70af2b05-d56f-4d40-b939-7c31b557a225",
    "name": "Owens Elementary School WWTP",
    "address": "21465 Al Highway 99, Athens, AL 35614",
    "city": "Athens",
    "state": "AL",
    "zip": "35614",
    "lat": 34.8025,
    "lon": -86.9717,
    "permit": "AL0055514",
    "permit_status": "In Effect",
    "permit_type": "Publicly Owned Treatment Works (POTW)",
    "stage": "Not in Pipeline",
    "contact_name": "",
    "contact_email": "",
    "contact_phone": ""
  },
  {
    "id": "7238d5ae-9e14-414c-91c2-6e2c944bff3e",
    "name": "Valley Creek WRF",
    "address": "3923 Clearwater Drive, Bessemer, AL 35023",
    "city": "Bessemer",
    "state": "AL",
    "zip": "35023",
    "lat": 33.4018,
    "lon": -86.9544,
    "permit": "AL0023655",
    "permit_status": "In Effect",
    "permit_type": "Publicly Owned Treatment Works (POTW)",
    "stage": "Not in Pipeline",
    "contact_name": "",
    "contact_email": "",
    "contact_phone": ""
  },
  {
    "id": "74a32adb-0741-4eb7-b5ed-72c924793231",
    "name": "Central High School Lagoon",
    "address": "3000 County Road 200, Florence, AL 35633",
    "city": "Florence",
    "state": "AL",
    "zip": "35633",
    "lat": 34.7998,
    "lon": -87.6772,
    "permit": "AL0057118",
    "permit_status": "In Effect",
    "permit_type": "Other Treatment Works Treating Domestic Sewage (TWTDS)",
    "stage": "Not in Pipeline",
    "contact_name": "",
    "contact_email": "",
    "contact_phone": ""
  },
  {
    "id": "7507fb1f-27b0-4971-9ed8-f7df3ae9f807",
    "name": "Browns Ferry Marina & Development WWTP",
    "address": "Nuclear Plant Road, Athens, AL 35611",
    "city": "Athens",
    "state": "AL",
    "zip": "35611",
    "lat": 34.8025,
    "lon": -86.9717,
    "permit": "AL0084495",
    "permit_status": "In Effect",
    "permit_type": "Other Treatment Works Treating Domestic Sewage (TWTDS)",
    "stage": "Not in Pipeline",
    "contact_name": "",
    "contact_email": "",
    "contact_phone": ""
  },
  {
    "id": "75bf2d18-dc02-48a6-a0f4-f1f5dbbf50c0",
    "name": "Rainbow City WWTP",
    "address": "1540 Sutton Bridge Road, Rainbow City, AL 35906",
    "city": "Rainbow City",
    "state": "AL",
    "zip": "35906",
    "lat": 33.9548,
    "lon": -86.0419,
    "permit": "AL0056839",
    "permit_status": "In Effect",
    "permit_type": "Publicly Owned Treatment Works (POTW)",
    "stage": "Not in Pipeline",
    "contact_name": "",
    "contact_email": "",
    "contact_phone": ""
  },
  {
    "id": "78b88bce-9c84-47d6-9f70-4910075d9199",
    "name": "Big Creek WWTP",
    "address": "Mullins Place, Troy, AL 36079",
    "city": "Troy",
    "state": "AL",
    "zip": "36079",
    "lat": 31.8088,
    "lon": -85.97,
    "permit": "AL0084466",
    "permit_status": "In Effect",
    "permit_type": "Publicly Owned Treatment Works (POTW)",
    "stage": "Not in Pipeline",
    "contact_name": "",
    "contact_email": "",
    "contact_phone": ""
  },
  {
    "id": "78f993f6-8a96-42bc-a2f7-da41f457d70a",
    "name": "Lucy's Branch WWTP",
    "address": "Lucy'S Branch Rv Park And Marina, Athens, AL 35612",
    "city": "Athens",
    "state": "AL",
    "zip": "35612",
    "lat": 34.8025,
    "lon": -86.9717,
    "permit": "AL0075248",
    "permit_status": "In Effect",
    "permit_type": "Publicly Owned Treatment Works (POTW)",
    "stage": "Not in Pipeline",
    "contact_name": "",
    "contact_email": "",
    "contact_phone": ""
  },
  {
    "id": "792c4682-e470-4dd6-98a7-4b8cb35e5947",
    "name": "Forestdale Mobile Home Park",
    "address": "2926 Una Street, Birmingham, AL 35214",
    "city": "Birmingham",
    "state": "AL",
    "zip": "35214",
    "lat": 33.5207,
    "lon": -86.8025,
    "permit": "AL0027642",
    "permit_status": "In Effect",
    "permit_type": "Other Treatment Works Treating Domestic Sewage (TWTDS)",
    "stage": "Not in Pipeline",
    "contact_name": "",
    "contact_email": "",
    "contact_phone": ""
  },
  {
    "id": "7994c889-245b-45dd-a9f0-da10d80e0c01",
    "name": "Enterprise College Street WWTP",
    "address": "1760 Pistol Road, Enterprise, AL 36331",
    "city": "Enterprise",
    "state": "AL",
    "zip": "36331",
    "lat": 31.3152,
    "lon": -85.8552,
    "permit": "AL0020036",
    "permit_status": "In Effect",
    "permit_type": "Publicly Owned Treatment Works (POTW)",
    "stage": "Not in Pipeline",
    "contact_name": "",
    "contact_email": "",
    "contact_phone": ""
  },
  {
    "id": "7bc3f3e7-78e7-48c5-a6b7-2268e008f28f",
    "name": "Talladega Brecon WWTP",
    "address": "525 Welch Avenue, Talladega, AL 35160",
    "city": "Talladega",
    "state": "AL",
    "zip": "35160",
    "lat": 33.4359,
    "lon": -86.1058,
    "permit": "AL0022349",
    "permit_status": "In Effect",
    "permit_type": "Publicly Owned Treatment Works (POTW)",
    "stage": "Not in Pipeline",
    "contact_name": "",
    "contact_email": "",
    "contact_phone": ""
  },
  {
    "id": "817cf7e8-64a0-49cc-b61c-02742ab8e605",
    "name": "Lockerbie Subdivision WWTP",
    "address": "Overton Road, Birmingham, AL 35223",
    "city": "Birmingham",
    "state": "AL",
    "zip": "35223",
    "lat": 33.5207,
    "lon": -86.8025,
    "permit": "AL0047571",
    "permit_status": "In Effect",
    "permit_type": "Other Treatment Works Treating Domestic Sewage (TWTDS)",
    "stage": "Not in Pipeline",
    "contact_name": "",
    "contact_email": "",
    "contact_phone": ""
  },
  {
    "id": "84213940-06c8-4d19-9e21-8d7150983221",
    "name": "Cullman WWTP",
    "address": "1437 Welti Road, Cullman, AL 35056",
    "city": "Cullman",
    "state": "AL",
    "zip": "35056",
    "lat": 34.1748,
    "lon": -86.8436,
    "permit": "AL0050423",
    "permit_status": "In Effect",
    "permit_type": "Publicly Owned Treatment Works (POTW)",
    "stage": "To Contact Today",
    "contact_name": "",
    "contact_email": "",
    "contact_phone": ""
  },
  {
    "id": "84cf0246-b6a0-46ab-9012-376e973d804f",
    "name": "Liberty Park WRRF",
    "address": "13059 Liberty Parkway, Vestavia Hills, AL 35242",
    "city": "Vestavia Hills",
    "state": "AL",
    "zip": "35242",
    "lat": 33.4487,
    "lon": -86.7878,
    "permit": "AL0067814",
    "permit_status": "In Effect",
    "permit_type": "Other Treatment Works Treating Domestic Sewage (TWTDS)",
    "stage": "Not in Pipeline",
    "contact_name": "",
    "contact_email": "",
    "contact_phone": ""
  },
  {
    "id": "84dbe611-1af9-4ca4-b8d5-c56fd63b1bb1",
    "name": "Dallas-Lincoln WTP",
    "address": "140 Neely Avenue, Huntsville, AL 35801",
    "city": "Huntsville",
    "state": "AL",
    "zip": "35801",
    "lat": 34.7304,
    "lon": -86.5861,
    "permit": "AL0063908",
    "permit_status": "In Effect",
    "permit_type": "Municipal Water Treatment Plant",
    "stage": "Not in Pipeline",
    "contact_name": "",
    "contact_email": "",
    "contact_phone": ""
  },
  {
    "id": "8547cec6-758f-4567-9741-c05d1eefc99c",
    "name": "Leeds WRF",
    "address": "800 Helen Street, Leeds, AL 35094",
    "city": "Leeds",
    "state": "AL",
    "zip": "35094",
    "lat": 33.5482,
    "lon": -86.5444,
    "permit": "AL0067067",
    "permit_status": "In Effect",
    "permit_type": "Publicly Owned Treatment Works (POTW)",
    "stage": "Not in Pipeline",
    "contact_name": "",
    "contact_email": "",
    "contact_phone": ""
  },
  {
    "id": "87e0a30c-37fc-48f4-b4b7-ec34aaa72447",
    "name": "Living Water Reclamation Facility",
    "address": "Highway 278, Cullman, AL 35055",
    "city": "Cullman",
    "state": "AL",
    "zip": "35055",
    "lat": 34.1748,
    "lon": -86.8436,
    "permit": "AL0084107",
    "permit_status": "In Effect",
    "permit_type": "Other Treatment Works Treating Domestic Sewage (TWTDS)",
    "stage": "Not in Pipeline",
    "contact_name": "",
    "contact_email": "",
    "contact_phone": ""
  },
  {
    "id": "89226453-5934-4816-a852-d7c1a101b7ab",
    "name": "Central School WWTP",
    "address": "990 Ryland Pike, Huntsville, AL 35811",
    "city": "Huntsville",
    "state": "AL",
    "zip": "35811",
    "lat": 34.7304,
    "lon": -86.5861,
    "permit": "AL0048810",
    "permit_status": "In Effect",
    "permit_type": "Other Treatment Works Treating Domestic Sewage (TWTDS)",
    "stage": "Not in Pipeline",
    "contact_name": "",
    "contact_email": "",
    "contact_phone": ""
  },
  {
    "id": "8bd5f415-1819-490e-90ea-a65981ce8f57",
    "name": "Northside School Lagoon",
    "address": "19230 Northside Parkway, Northport, AL 35475",
    "city": "Northport",
    "state": "AL",
    "zip": "35475",
    "lat": 33.229,
    "lon": -87.5772,
    "permit": "AL0050661",
    "permit_status": "In Effect",
    "permit_type": "Other Treatment Works Treating Domestic Sewage (TWTDS)",
    "stage": "Not in Pipeline",
    "contact_name": "",
    "contact_email": "",
    "contact_phone": ""
  },
  {
    "id": "8ea4c3bd-a402-489d-b8d9-86f9583adf25",
    "name": "Coley Creek WWTP",
    "address": "2150 Coley Creek Road, Alexander City, AL 35010",
    "city": "Alexander City",
    "state": "AL",
    "zip": "35010",
    "lat": 32.944,
    "lon": -85.9539,
    "permit": "AL0021156",
    "permit_status": "In Effect",
    "permit_type": "Publicly Owned Treatment Works (POTW)",
    "stage": "Not in Pipeline",
    "contact_name": "",
    "contact_email": "",
    "contact_phone": ""
  },
  {
    "id": "91935d48-f502-4500-a4a7-2af9a210b1b6",
    "name": "Carol Stream WWTP",
    "address": "",
    "city": "Carol Stream",
    "state": "IL",
    "zip": "",
    "lat": 41.9125,
    "lon": -88.1348,
    "permit": "",
    "permit_status": "",
    "permit_type": "",
    "stage": "Paid",
    "contact_name": "",
    "contact_email": "",
    "contact_phone": ""
  },
  {
    "id": "91eac35b-ed9f-4fdb-a6e6-2f77366a003d",
    "name": "Dallas County WWTP",
    "address": "Craig Airport Authority Bldg 278, Selma, AL 36701",
    "city": "Selma",
    "state": "AL",
    "zip": "36701",
    "lat": 32.4074,
    "lon": -87.0211,
    "permit": "AL0043176",
    "permit_status": "Extended",
    "permit_type": "Publicly Owned Treatment Works (POTW)",
    "stage": "Not in Pipeline",
    "contact_name": "",
    "contact_email": "",
    "contact_phone": ""
  },
  {
    "id": "9218b9d8-47c3-48bc-8c80-2b0aa1b40093",
    "name": "Montevallo WWTP",
    "address": "455 Selma Road, Montevallo, AL 35115",
    "city": "Montevallo",
    "state": "AL",
    "zip": "35115",
    "lat": 33.1007,
    "lon": -86.8644,
    "permit": "AL0023299",
    "permit_status": "In Effect",
    "permit_type": "Publicly Owned Treatment Works (POTW)",
    "stage": "Not in Pipeline",
    "contact_name": "",
    "contact_email": "",
    "contact_phone": ""
  },
  {
    "id": "94478609-c90b-44c8-8024-43ccc971c9d0",
    "name": "Ozark Northeast Lagoon",
    "address": "1330 County Road 36E, Ozark, AL 36360",
    "city": "Ozark",
    "state": "AL",
    "zip": "36360",
    "lat": 31.459,
    "lon": -85.6405,
    "permit": "AL0058688",
    "permit_status": "In Effect",
    "permit_type": "Publicly Owned Treatment Works (POTW)",
    "stage": "Not in Pipeline",
    "contact_name": "",
    "contact_email": "",
    "contact_phone": ""
  },
  {
    "id": "98abc96e-f97a-4c5e-b779-4a6d2ed0ff3b",
    "name": "Alabaster WWTP",
    "address": "104 8Th Avenue Nw, Alabaster, AL 35007",
    "city": "Alabaster",
    "state": "AL",
    "zip": "35007",
    "lat": 33.2443,
    "lon": -86.8166,
    "permit": "AL0025828",
    "permit_status": "In Effect",
    "permit_type": "Publicly Owned Treatment Works (POTW)",
    "stage": "To Contact Today",
    "contact_name": "",
    "contact_email": "",
    "contact_phone": ""
  },
  {
    "id": "991dc087-1fe3-4f40-bfe6-ed01235de353",
    "name": "Charles C. Adams III Water Treatment Plant",
    "address": "291 Adams Circle, Alexander City, AL 35010",
    "city": "Alexander City",
    "state": "AL",
    "zip": "35010",
    "lat": 32.944,
    "lon": -85.9539,
    "permit": "AL0067695",
    "permit_status": "Extended",
    "permit_type": "Municipal Water Treatment Plant",
    "stage": "Not in Pipeline",
    "contact_name": "",
    "contact_email": "",
    "contact_phone": ""
  },
  {
    "id": "99ab6a21-895c-4513-bf04-0443c8a9dfe7",
    "name": "Western Area WWTP",
    "address": "759 Landess Circle, Madison, AL 35756",
    "city": "Madison",
    "state": "AL",
    "zip": "35756",
    "lat": 34.6993,
    "lon": -86.7483,
    "permit": "AL0049531",
    "permit_status": "In Effect",
    "permit_type": "Publicly Owned Treatment Works (POTW)",
    "stage": "Not in Pipeline",
    "contact_name": "",
    "contact_email": "",
    "contact_phone": ""
  },
  {
    "id": "9a1ac1ae-8b85-4399-bdbb-854acef8d642",
    "name": "Talladega Airport Industrial Park WWTP",
    "address": "301 Waldrop Lane, Talladega, AL 35160",
    "city": "Talladega",
    "state": "AL",
    "zip": "35160",
    "lat": 33.4359,
    "lon": -86.1058,
    "permit": "AL0054658",
    "permit_status": "In Effect",
    "permit_type": "Publicly Owned Treatment Works (POTW)",
    "stage": "Not in Pipeline",
    "contact_name": "",
    "contact_email": "",
    "contact_phone": ""
  },
  {
    "id": "a158a163-e298-452d-8d0a-ad1275ddfc7b",
    "name": "Fairmont WWTP",
    "address": "885 Brooks Road, Sylacauga, AL 35150",
    "city": "Sylacauga",
    "state": "AL",
    "zip": "35150",
    "lat": 33.1732,
    "lon": -86.2516,
    "permit": "AL0020010",
    "permit_status": "Extended",
    "permit_type": "Publicly Owned Treatment Works (POTW)",
    "stage": "Not in Pipeline",
    "contact_name": "",
    "contact_email": "",
    "contact_phone": ""
  },
  {
    "id": "a2c6def5-0bac-422e-9dc1-493228014357",
    "name": "Clifton C. Williams WWTP",
    "address": "1600 Yeend Street, Mobile, AL 36603",
    "city": "Mobile",
    "state": "AL",
    "zip": "36603",
    "lat": 30.6954,
    "lon": -88.0399,
    "permit": "AL0023086",
    "permit_status": "Extended",
    "permit_type": "Publicly Owned Treatment Works (POTW)",
    "stage": "Not in Pipeline",
    "contact_name": "",
    "contact_email": "",
    "contact_phone": ""
  },
  {
    "id": "a3a79224-a84f-4cf4-8c90-bd23ec440174",
    "name": "St. Clair Health and Rehab, Inc.",
    "address": "7300 Us Highway 78, Pell City, AL 35128",
    "city": "Pell City",
    "state": "AL",
    "zip": "35128",
    "lat": 33.5862,
    "lon": -86.2861,
    "permit": "AL0057096",
    "permit_status": "In Effect",
    "permit_type": "Other Treatment Works Treating Domestic Sewage (TWTDS)",
    "stage": "Not in Pipeline",
    "contact_name": "",
    "contact_email": "",
    "contact_phone": ""
  },
  {
    "id": "a6a0c006-96aa-49f4-9886-4945adea422a",
    "name": "Peachtree Crossing Mobile Home Park WWTP",
    "address": "6521 Peachtree Boulevard, Gardendale, AL 35071",
    "city": "Gardendale",
    "state": "AL",
    "zip": "35071",
    "lat": 33.6601,
    "lon": -86.8128,
    "permit": "AL0051055",
    "permit_status": "In Effect",
    "permit_type": "Other Treatment Works Treating Domestic Sewage (TWTDS)",
    "stage": "Not in Pipeline",
    "contact_name": "",
    "contact_email": "",
    "contact_phone": ""
  },
  {
    "id": "ab4905a9-922a-4b8d-ae12-641372e64f82",
    "name": "Suntrace Troy, LLC",
    "address": "12689 Us Highway 231, Troy, AL 36081",
    "city": "Troy",
    "state": "AL",
    "zip": "36081",
    "lat": 31.8088,
    "lon": -85.97,
    "permit": "AL0057509",
    "permit_status": "In Effect",
    "permit_type": "Other Treatment Works Treating Domestic Sewage (TWTDS)",
    "stage": "Not in Pipeline",
    "contact_name": "",
    "contact_email": "",
    "contact_phone": ""
  },
  {
    "id": "ab6f5065-f762-4d33-9e84-e0b0454bbdb0",
    "name": "Woodruff Farms WWTP",
    "address": "Southern Trace Drive, Leeds, AL 35094",
    "city": "Leeds",
    "state": "AL",
    "zip": "35094",
    "lat": 33.5482,
    "lon": -86.5444,
    "permit": "AL0082813",
    "permit_status": "In Effect",
    "permit_type": "Other Treatment Works Treating Domestic Sewage (TWTDS)",
    "stage": "To Contact Today",
    "contact_name": "",
    "contact_email": "",
    "contact_phone": ""
  },
  {
    "id": "b09bf0c6-29a5-4a0e-9538-cbedcc7db6b7",
    "name": "Dothan Omussee Creek WWTP",
    "address": "457 Jerry Drive, Dothan, AL 36303",
    "city": "Dothan",
    "state": "AL",
    "zip": "36303",
    "lat": 31.2232,
    "lon": -85.3905,
    "permit": "AL0022764",
    "permit_status": "In Effect",
    "permit_type": "Publicly Owned Treatment Works (POTW)",
    "stage": "Not in Pipeline",
    "contact_name": "",
    "contact_email": "",
    "contact_phone": ""
  },
  {
    "id": "b7418e9e-932d-46be-86d5-858f33d293e4",
    "name": "Alabama Department of Conservation Lakepoint State Park",
    "address": "104 Lakepoint Drive, Eufaula, AL 36027",
    "city": "Eufaula",
    "state": "AL",
    "zip": "36027",
    "lat": 31.8913,
    "lon": -85.1455,
    "permit": "AL0023906",
    "permit_status": "In Effect",
    "permit_type": "Publicly Owned Treatment Works (POTW)",
    "stage": "Not in Pipeline",
    "contact_name": "",
    "contact_email": "",
    "contact_phone": ""
  },
  {
    "id": "b7bddf5d-4762-4839-8c47-a26d4711f8e7",
    "name": "Eufaula WWTP",
    "address": "845 Pump Station Road, Eufaula, AL 36027",
    "city": "Eufaula",
    "state": "AL",
    "zip": "36027",
    "lat": 31.8913,
    "lon": -85.1455,
    "permit": "AL0061671",
    "permit_status": "In Effect",
    "permit_type": "Publicly Owned Treatment Works (POTW)",
    "stage": "Not in Pipeline",
    "contact_name": "",
    "contact_email": "",
    "contact_phone": ""
  },
  {
    "id": "ba7c054f-ef9e-4c6a-aa9b-17b11e4ccf90",
    "name": "Wright Smith Jr. WWTP",
    "address": "1879 Conception Street Road, Mobile, AL 36652",
    "city": "Mobile",
    "state": "AL",
    "zip": "36652",
    "lat": 30.6954,
    "lon": -88.0399,
    "permit": "AL0023094",
    "permit_status": "Extended",
    "permit_type": "Publicly Owned Treatment Works (POTW)",
    "stage": "Not in Pipeline",
    "contact_name": "",
    "contact_email": "",
    "contact_phone": ""
  },
  {
    "id": "bbb83fd5-4c12-4ea0-b086-9c26b1393f9b",
    "name": "Woodstock Clean Water Facility",
    "address": "Gamble Road, Mccalla, AL 35111",
    "city": "McCalla",
    "state": "AL",
    "zip": "35111",
    "lat": 33.2612,
    "lon": -87.0286,
    "permit": "AL0084496",
    "permit_status": "In Effect",
    "permit_type": "Other Treatment Works Treating Domestic Sewage (TWTDS)",
    "stage": "Not in Pipeline",
    "contact_name": "",
    "contact_email": "",
    "contact_phone": ""
  },
  {
    "id": "bbdfba6a-f8f7-40b2-a36c-18b904239335",
    "name": "Troy Walnut Creek WWTP",
    "address": "588 County Road 3355, Troy, AL 36079",
    "city": "Troy",
    "state": "AL",
    "zip": "36079",
    "lat": 31.8088,
    "lon": -85.97,
    "permit": "AL0032310",
    "permit_status": "In Effect",
    "permit_type": "Publicly Owned Treatment Works (POTW)",
    "stage": "Not in Pipeline",
    "contact_name": "",
    "contact_email": "",
    "contact_phone": ""
  },
  {
    "id": "bc9be103-a06e-4a2e-a7b2-70460fc0afa5",
    "name": "Madison WWTP",
    "address": "701 Landess Circle, Madison, AL 35756",
    "city": "Madison",
    "state": "AL",
    "zip": "35756",
    "lat": 34.6993,
    "lon": -86.7483,
    "permit": "AL0071897",
    "permit_status": "In Effect",
    "permit_type": "Publicly Owned Treatment Works (POTW)",
    "stage": "Not in Pipeline",
    "contact_name": "",
    "contact_email": "",
    "contact_phone": ""
  },
  {
    "id": "bf42d245-9ad1-41c0-85cd-6682bd996f6f",
    "name": "Towassa WWTP",
    "address": "3000 Washington Ferry Road, Montgomery, AL 36108",
    "city": "Montgomery",
    "state": "AL",
    "zip": "36108",
    "lat": 32.3792,
    "lon": -86.3077,
    "permit": "AL0022241",
    "permit_status": "Extended",
    "permit_type": "Publicly Owned Treatment Works (POTW)",
    "stage": "Not in Pipeline",
    "contact_name": "",
    "contact_email": "",
    "contact_phone": ""
  },
  {
    "id": "bf9d323c-ba5e-4eb0-9826-1c2a4160e306",
    "name": "Cahaba River WRF",
    "address": "3900 Veona Daniels Road, Birmingham, AL 35244",
    "city": "Birmingham",
    "state": "AL",
    "zip": "35244",
    "lat": 33.5207,
    "lon": -86.8025,
    "permit": "AL0023027",
    "permit_status": "In Effect",
    "permit_type": "Publicly Owned Treatment Works (POTW)",
    "stage": "Onboarded \ud83c\udf89",
    "contact_name": "",
    "contact_email": "",
    "contact_phone": ""
  },
  {
    "id": "c0c7b0a2-b236-4edc-aa56-faa2a2ce365e",
    "name": "Camp Branch Water Reclamation Facility",
    "address": "255 Training Center Dr., Calera, AL 35040",
    "city": "Calera",
    "state": "AL",
    "zip": "35040",
    "lat": 33.1029,
    "lon": -86.7536,
    "permit": "AL0074608",
    "permit_status": "In Effect",
    "permit_type": "Publicly Owned Treatment Works (POTW)",
    "stage": "Not in Pipeline",
    "contact_name": "",
    "contact_email": "",
    "contact_phone": ""
  },
  {
    "id": "c349bb7f-69c7-48bb-a6a6-78f34839c362",
    "name": "The David Treadwell WRF",
    "address": "2400 Joey Adkins Drive, Moody, AL 35004",
    "city": "Moody",
    "state": "AL",
    "zip": "35004",
    "lat": 33.5909,
    "lon": -86.5094,
    "permit": "AL0055255",
    "permit_status": "In Effect",
    "permit_type": "Publicly Owned Treatment Works (POTW)",
    "stage": "Not in Pipeline",
    "contact_name": "",
    "contact_email": "",
    "contact_phone": ""
  },
  {
    "id": "c50c9cbc-0b09-431f-bd9b-58178ea784b3",
    "name": "Tannehill Preserve Clean Water Facility",
    "address": "Central Park Drive, Mccalla, AL 35111",
    "city": "McCalla",
    "state": "AL",
    "zip": "35111",
    "lat": 33.2612,
    "lon": -87.0286,
    "permit": "AL0084474",
    "permit_status": "In Effect",
    "permit_type": "Other Treatment Works Treating Domestic Sewage (TWTDS)",
    "stage": "Not in Pipeline",
    "contact_name": "",
    "contact_email": "",
    "contact_phone": ""
  },
  {
    "id": "c99f406a-fffc-42b1-ace7-2987dc69a303",
    "name": "Beauregard High School Lagoon",
    "address": "7343 Alabama Highway 51, Opelika, AL 36804",
    "city": "Opelika",
    "state": "AL",
    "zip": "36804",
    "lat": 32.6454,
    "lon": -85.3783,
    "permit": "AL0043656",
    "permit_status": "Extended",
    "permit_type": "Other Treatment Works Treating Domestic Sewage (TWTDS)",
    "stage": "Not in Pipeline",
    "contact_name": "",
    "contact_email": "",
    "contact_phone": ""
  },
  {
    "id": "c9a2de1d-6c91-43e1-8c90-8f98d1b8190d",
    "name": "Fairview School WWTP",
    "address": "841 Welcome Road, Cullman, AL 35058",
    "city": "Cullman",
    "state": "AL",
    "zip": "35058",
    "lat": 34.1748,
    "lon": -86.8436,
    "permit": "AL0051098",
    "permit_status": "In Effect",
    "permit_type": "Other Treatment Works Treating Domestic Sewage (TWTDS)",
    "stage": "Not in Pipeline",
    "contact_name": "",
    "contact_email": "",
    "contact_phone": ""
  },
  {
    "id": "ccaeca05-9af3-40f7-908a-4cf49899ab04",
    "name": "Goosepond WWTP",
    "address": "417 Ed Hembree Dr, Scottsboro, AL 35768",
    "city": "Scottsboro",
    "state": "AL",
    "zip": "35769",
    "lat": 34.6723,
    "lon": -86.0341,
    "permit": "AL0054461",
    "permit_status": "Not Issued",
    "permit_type": "Publicly Owned Treatment Works (POTW)",
    "stage": "Not in Pipeline",
    "contact_name": "",
    "contact_email": "",
    "contact_phone": ""
  },
  {
    "id": "cd20261a-b69b-4e21-b830-e9938621e0a4",
    "name": "Helena WWTP",
    "address": "590 Old Towne Place, Helena, AL 35080",
    "city": "Helena",
    "state": "AL",
    "zip": "35080",
    "lat": 33.2962,
    "lon": -86.8436,
    "permit": "AL0023116",
    "permit_status": "In Effect",
    "permit_type": "Publicly Owned Treatment Works (POTW)",
    "stage": "Interest Expressed",
    "contact_name": "",
    "contact_email": "",
    "contact_phone": ""
  },
  {
    "id": "d381cf39-0269-4d0f-b6b6-4b9f21434fd4",
    "name": "Curry School System WWTP",
    "address": "85 Yellow Jacket Drive, Jasper, AL 35503",
    "city": "Jasper",
    "state": "AL",
    "zip": "35503",
    "lat": 33.8312,
    "lon": -87.2775,
    "permit": "AL0041726",
    "permit_status": "In Effect",
    "permit_type": "Other Treatment Works Treating Domestic Sewage (TWTDS)",
    "stage": "Not in Pipeline",
    "contact_name": "",
    "contact_email": "",
    "contact_phone": ""
  },
  {
    "id": "d99d470f-88ee-406c-b738-423184adda40",
    "name": "Opelika Eastside WWTP",
    "address": "3010 Columbus Parkway, Opelika, AL 36801",
    "city": "Opelika",
    "state": "AL",
    "zip": "36801",
    "lat": 32.6454,
    "lon": -85.3783,
    "permit": "AL0059218",
    "permit_status": "In Effect",
    "permit_type": "Publicly Owned Treatment Works (POTW)",
    "stage": "Not in Pipeline",
    "contact_name": "",
    "contact_email": "",
    "contact_phone": ""
  },
  {
    "id": "da58f927-01e8-4714-9ebe-97b6310ec238",
    "name": "Wilako WWTF",
    "address": "2909 Elmore Rd, Wetumpka, AL 36092",
    "city": "Wetumpka",
    "state": "AL",
    "zip": "36092",
    "lat": 32.544,
    "lon": -86.2119,
    "permit": "AL0064025",
    "permit_status": "In Effect",
    "permit_type": "Publicly Owned Treatment Works (POTW)",
    "stage": "Not in Pipeline",
    "contact_name": "",
    "contact_email": "",
    "contact_phone": ""
  },
  {
    "id": "dbfe63b3-c0d7-47f2-93df-7ae7f9247614",
    "name": "Jack Hamilton Road WWTP",
    "address": "Jack Hamilton Road, Mobile, AL 36695",
    "city": "Mobile",
    "state": "AL",
    "zip": "36695",
    "lat": 30.6954,
    "lon": -88.0399,
    "permit": "AL0084452",
    "permit_status": "In Effect",
    "permit_type": "Publicly Owned Treatment Works (POTW)",
    "stage": "Not in Pipeline",
    "contact_name": "",
    "contact_email": "",
    "contact_phone": ""
  },
  {
    "id": "de387a96-2c20-4b33-bf3f-bf1bed88afd6",
    "name": "Eliza Jordan WWTP",
    "address": "476 Eliza Jordan Road, Mobile, AL 36608",
    "city": "Mobile",
    "state": "AL",
    "zip": "36608",
    "lat": 30.6954,
    "lon": -88.0399,
    "permit": "AL0081655",
    "permit_status": "In Effect",
    "permit_type": "Publicly Owned Treatment Works (POTW)",
    "stage": "Not in Pipeline",
    "contact_name": "",
    "contact_email": "",
    "contact_phone": ""
  },
  {
    "id": "de5dd59d-c9a6-4db2-a8b4-5b732ebd2f05",
    "name": "Catoma Creek WWTP",
    "address": "6000 Richard E. Hanan Drive, Montgomery, AL 36108",
    "city": "Montgomery",
    "state": "AL",
    "zip": "36108",
    "lat": 32.3792,
    "lon": -86.3077,
    "permit": "AL0027863",
    "permit_status": "In Effect",
    "permit_type": "Publicly Owned Treatment Works (POTW)",
    "stage": "Not in Pipeline",
    "contact_name": "",
    "contact_email": "",
    "contact_phone": ""
  },
  {
    "id": "e1dcda27-4083-4538-a490-7735ea0347e9",
    "name": "Trussville WRF",
    "address": "325 City Hall Drive, Trussville, AL 35173",
    "city": "Trussville",
    "state": "AL",
    "zip": "35173",
    "lat": 33.6198,
    "lon": -86.6089,
    "permit": "AL0022934",
    "permit_status": "In Effect",
    "permit_type": "Publicly Owned Treatment Works (POTW)",
    "stage": "Paid",
    "contact_name": "",
    "contact_email": "",
    "contact_phone": ""
  },
  {
    "id": "e1fa9c55-c506-4f4d-93fc-45820b422a70",
    "name": "Hunter's Crossing WWTP",
    "address": "195 Marlboro Way, Madison, AL 35757",
    "city": "Madison",
    "state": "AL",
    "zip": "35757",
    "lat": 34.6993,
    "lon": -86.7483,
    "permit": "AL0055158",
    "permit_status": "In Effect",
    "permit_type": "Publicly Owned Treatment Works (POTW)",
    "stage": "Not in Pipeline",
    "contact_name": "",
    "contact_email": "",
    "contact_phone": ""
  },
  {
    "id": "e98872aa-9b2e-4d03-8d55-ef7909601e90",
    "name": "Daphne Water Reclamation Facility",
    "address": "29280 North Main Street, Daphne, AL 36526",
    "city": "Daphne",
    "state": "AL",
    "zip": "36526",
    "lat": 30.6035,
    "lon": -87.9036,
    "permit": "AL0027561",
    "permit_status": "Extended",
    "permit_type": "Publicly Owned Treatment Works (POTW)",
    "stage": "Not in Pipeline",
    "contact_name": "",
    "contact_email": "",
    "contact_phone": ""
  },
  {
    "id": "e9d5159f-94b3-429e-bae8-884317eef43d",
    "name": "Prattville Pine Creek Clean Water Facility",
    "address": "100 Pine Creek Drive, Prattville, AL 36066",
    "city": "Prattville",
    "state": "AL",
    "zip": "36066",
    "lat": 32.464,
    "lon": -86.4597,
    "permit": "AL0027723",
    "permit_status": "In Effect",
    "permit_type": "Publicly Owned Treatment Works (POTW)",
    "stage": "Not in Pipeline",
    "contact_name": "",
    "contact_email": "info@pwwb.com",
    "contact_phone": ""
  },
  {
    "id": "ed4d47f0-856f-41f7-82a2-00d2a638843c",
    "name": "Southwest WTP",
    "address": "255 Wall Triana Highway, Madison, AL 35756",
    "city": "Madison",
    "state": "AL",
    "zip": "35756",
    "lat": 34.6993,
    "lon": -86.7483,
    "permit": "AL0070271",
    "permit_status": "In Effect",
    "permit_type": "Municipal Water Treatment Plant",
    "stage": "Not in Pipeline",
    "contact_name": "",
    "contact_email": "",
    "contact_phone": ""
  },
  {
    "id": "f3e5a878-524e-4e4a-9442-f4d39191ff1f",
    "name": "South Parkway WTP",
    "address": "14000 Memorial Parkway, Huntsville, AL 35804",
    "city": "Huntsville",
    "state": "AL",
    "zip": "35804",
    "lat": 34.7304,
    "lon": -86.5861,
    "permit": "AL0072281",
    "permit_status": "In Effect",
    "permit_type": "Municipal Water Treatment Plant",
    "stage": "Not in Pipeline",
    "contact_name": "",
    "contact_email": "",
    "contact_phone": ""
  },
  {
    "id": "f5c73a30-62c4-45b2-8045-f972e8c6fa2f",
    "name": "Choccolocco Creek WWTP",
    "address": "35 Friendship Road, Oxford, AL 36203",
    "city": "Oxford",
    "state": "AL",
    "zip": "36203",
    "lat": 33.614,
    "lon": -85.8347,
    "permit": "AL0022195",
    "permit_status": "In Effect",
    "permit_type": "Publicly Owned Treatment Works (POTW)",
    "stage": "Not in Pipeline",
    "contact_name": "",
    "contact_email": "",
    "contact_phone": ""
  },
  {
    "id": "f660829d-d503-497b-8d17-de3646319ced",
    "name": "Southside High School Lagoon",
    "address": "7975 Highway 80 East, Selma, AL 36701",
    "city": "Selma",
    "state": "AL",
    "zip": "36701",
    "lat": 32.4074,
    "lon": -87.0211,
    "permit": "AL0044334",
    "permit_status": "In Effect",
    "permit_type": "Other Treatment Works Treating Domestic Sewage (TWTDS)",
    "stage": "Not in Pipeline",
    "contact_name": "",
    "contact_email": "",
    "contact_phone": ""
  },
  {
    "id": "f7ee55b9-ba43-4032-bfda-52501b598ca4",
    "name": "Fairhope WWTP",
    "address": "300 North Church Street, Fairhope, AL 36532",
    "city": "Fairhope",
    "state": "AL",
    "zip": "36532",
    "lat": 30.523,
    "lon": -87.9033,
    "permit": "AL0020842",
    "permit_status": "Extended",
    "permit_type": "Publicly Owned Treatment Works (POTW)",
    "stage": "Not in Pipeline",
    "contact_name": "",
    "contact_email": "",
    "contact_phone": ""
  },
  {
    "id": "f833f7c3-4520-456f-a08a-ffdca9996e82",
    "name": "Oak Mountain State Park WWTP",
    "address": "200 Terrace Drive, Pelham, AL 35124",
    "city": "Pelham",
    "state": "AL",
    "zip": "35124",
    "lat": 33.2857,
    "lon": -86.8094,
    "permit": "AL0050831",
    "permit_status": "Extended",
    "permit_type": "Publicly Owned Treatment Works (POTW)",
    "stage": "Not in Pipeline",
    "contact_name": "",
    "contact_email": "",
    "contact_phone": ""
  },
  {
    "id": "f85862ab-1a3c-47e4-965c-31ee6527bcdd",
    "name": "Attalla Wastewater Treatment Lagoon",
    "address": "4000 East Greenview Avenue, Rainbow City, AL 35906",
    "city": "Rainbow City",
    "state": "AL",
    "zip": "35906",
    "lat": 33.9548,
    "lon": -86.0419,
    "permit": "AL0057657",
    "permit_status": "In Effect",
    "permit_type": "Publicly Owned Treatment Works (POTW)",
    "stage": "Not in Pipeline",
    "contact_name": "",
    "contact_email": "",
    "contact_phone": ""
  }
]